% (lat/lon/height=WGS84/ellipsoidal,Q=1:fix,2:float,3:sbas,4:dgps,5:single,6:ppp,ns=# of satellites)
%  GPST                  latitude(deg) longitude(deg)  height(m)   Q  ns   sdn(m)   sde(m)   sdu(m)  sdne(m)  sdeu(m)  sdun(m) age(s)  ratio
2015/04/29 09:01:43.000   35.661359942  139.678142412   117.5547   2  11   0.6513   0.5712   1.5795   0.0373  -0.3153  -0.6195   0.00    1.0
2015/04/29 09:01:44.000   35.661361629  139.678144893   117.1258   2  11   0.4638   0.4061   1.1232   0.0281  -0.2235  -0.4413   0.00    1.2
2015/04/29 09:01:45.000   35.661363348  139.678144770   116.8206   2  11   0.3795   0.3321   0.9189   0.0233  -0.1826  -0.3611   0.00    1.4
2015/04/29 09:01:46.000   35.661362984  139.678144747   117.0306   2  11   0.3290   0.2879   0.7965   0.0202  -0.1580  -0.3131   0.00    1.3
2015/04/29 09:01:47.000   35.661363633  139.678144707   116.9089   2  11   0.2944   0.2576   0.7128   0.0180  -0.1413  -0.2801   0.00    1.4
2015/04/29 09:01:48.000   35.661363564  139.678144585   116.9269   2  11   0.2688   0.2353   0.6509   0.0163  -0.1289  -0.2557   0.00    1.4
2015/04/29 09:01:49.000   35.661363601  139.678144716   116.9417   2  11   0.2489   0.2179   0.6027   0.0149  -0.1192  -0.2367   0.00    1.4
2015/04/29 09:01:50.000   35.661363563  139.678144345   116.9696   2  11   0.2328   0.2038   0.5638   0.0137  -0.1114  -0.2213   0.00    1.4
2015/04/29 09:01:51.000   35.661363331  139.678144415   117.0352   2  11   0.2194   0.1922   0.5315   0.0126  -0.1049  -0.2085   0.00    1.3
2015/04/29 09:01:52.000   35.661363319  139.678144220   117.0899   2  11   0.2081   0.1824   0.5041   0.0117  -0.0994  -0.1976   0.00    1.3
2015/04/29 09:01:53.000   35.661363197  139.678144202   117.0881   2  11   0.1983   0.1739   0.4806   0.0108  -0.0946  -0.1882   0.00    1.3
2015/04/29 09:01:54.000   35.661363333  139.678143926   117.0559   2  11   0.1898   0.1665   0.4600   0.0100  -0.0905  -0.1800   0.00    1.3
2015/04/29 09:01:55.000   35.661363412  139.678143982   117.0228   2  11   0.1822   0.1600   0.4418   0.0092  -0.0868  -0.1728   0.00    1.3
2015/04/29 09:01:56.000   35.661363497  139.678144018   117.0812   2  11   0.1754   0.1542   0.4256   0.0084  -0.0835  -0.1662   0.00    1.3
2015/04/29 09:01:57.000   35.661363504  139.678143870   117.0481   2  11   0.1694   0.1489   0.4110   0.0076  -0.0806  -0.1604   0.00    1.3
2015/04/29 09:01:58.000   35.661363706  139.678143938   117.0244   2  11   0.1639   0.1442   0.3977   0.0068  -0.0779  -0.1550   0.00    1.4
2015/04/29 09:01:59.000   35.661363770  139.678143782   117.0363   2  11   0.1588   0.1399   0.3856   0.0060  -0.0754  -0.1501   0.00    1.4
2015/04/29 09:02:00.000   35.661363601  139.678143779   117.0897   2  11   0.1542   0.1360   0.3745   0.0050  -0.0731  -0.1456   0.00    1.3
2015/04/29 09:02:01.000   35.661363520  139.678143723   117.0923   2  11   0.1500   0.1323   0.3643   0.0041  -0.0711  -0.1415   0.00    1.3
2015/04/29 09:02:02.000   35.661363487  139.678143600   117.1101   2  11   0.1460   0.1290   0.3549   0.0029  -0.0691  -0.1376   0.00    1.3
2015/04/29 09:02:03.000   35.661363437  139.678143648   117.1165   2  11   0.1423   0.1259   0.3461  -0.0002  -0.0673  -0.1340   0.00    1.3
2015/04/29 09:02:04.000   35.661363269  139.678143838   117.1026   2  11   0.1389   0.1230   0.3378  -0.0027  -0.0656  -0.1306   0.00    1.3
2015/04/29 09:02:05.000   35.661363216  139.678143745   117.0899   2  11   0.1357   0.1203   0.3301  -0.0040  -0.0640  -0.1274   0.00    1.3
2015/04/29 09:02:06.000   35.661363167  139.678143763   117.0804   2  11   0.1327   0.1177   0.3229  -0.0047  -0.0625  -0.1244   0.00    1.3
2015/04/29 09:02:07.000   35.661363142  139.678143728   117.0579   2  11   0.1298   0.1153   0.3161  -0.0053  -0.0611  -0.1216   0.00    1.3
2015/04/29 09:02:08.000   35.661363104  139.678143720   117.0724   2  11   0.1271   0.1131   0.3097  -0.0059  -0.0598  -0.1189   0.00    1.3
2015/04/29 09:02:09.000   35.661363242  139.678143697   117.0476   2  11   0.1246   0.1110   0.3036  -0.0064  -0.0585  -0.1163   0.00    1.3
2015/04/29 09:02:10.000   35.661363271  139.678143796   117.0443   2  11   0.1221   0.1090   0.2978  -0.0069  -0.0573  -0.1139   0.00    1.3
2015/04/29 09:02:11.000   35.661363274  139.678143783   117.0508   2  11   0.1198   0.1071   0.2923  -0.0073  -0.0562  -0.1115   0.00    1.3
2015/04/29 09:02:12.000   35.661363133  139.678143759   117.0434   2  11   0.1176   0.1053   0.2871  -0.0077  -0.0551  -0.1093   0.00    1.3
2015/04/29 09:02:13.000   35.661363015  139.678143732   117.0618   2  11   0.1155   0.1035   0.2821  -0.0080  -0.0540  -0.1072   0.00    1.3
2015/04/29 09:02:14.000   35.661362917  139.678143797   117.0554   2  11   0.1135   0.1019   0.2774  -0.0083  -0.0530  -0.1051   0.00    1.3
2015/04/29 09:02:15.000   35.661362845  139.678143754   117.0630   2  11   0.1116   0.1003   0.2728  -0.0087  -0.0521  -0.1031   0.00    1.3
2015/04/29 09:02:16.000   35.661362895  139.678143766   117.0660   2  11   0.1097   0.0988   0.2684  -0.0090  -0.0511  -0.1012   0.00    1.3
2015/04/29 09:02:17.000   35.661362872  139.678143849   117.0736   2  11   0.1080   0.0974   0.2642  -0.0092  -0.0503  -0.0994   0.00    1.3
2015/04/29 09:02:18.000   35.661362840  139.678143865   117.0730   2  11   0.1063   0.0961   0.2602  -0.0094  -0.0494  -0.0976   0.00    1.3
2015/04/29 09:02:19.000   35.661362872  139.678143872   117.0865   2  11   0.1046   0.0947   0.2563  -0.0097  -0.0486  -0.0959   0.00    1.3
2015/04/29 09:02:20.000   35.661362791  139.678143808   117.0812   2  11   0.1031   0.0935   0.2525  -0.0099  -0.0478  -0.0943   0.00    1.3
2015/04/29 09:02:21.000   35.661362776  139.678143837   117.0761   2  11   0.1015   0.0923   0.2489  -0.0101  -0.0470  -0.0927   0.00    1.3
2015/04/29 09:02:22.000   35.661362732  139.678143860   117.0749   2  11   0.1001   0.0911   0.2455  -0.0104  -0.0462  -0.0911   0.00    1.3
2015/04/29 09:02:23.000   35.661362655  139.678143847   117.0813   2  11   0.0986   0.0900   0.2421  -0.0105  -0.0455  -0.0896   0.00    1.3
2015/04/29 09:02:24.000   35.661362578  139.678143868   117.0935   2  11   0.0972   0.0889   0.2388  -0.0108  -0.0448  -0.0881   0.00    1.3
2015/04/29 09:02:25.000   35.661362443  139.678143886   117.1044   2  11   0.0959   0.0878   0.2357  -0.0110  -0.0441  -0.0867   0.00    1.3
2015/04/29 09:02:26.000   35.661362446  139.678143889   117.0898   2  11   0.0946   0.0868   0.2326  -0.0111  -0.0435  -0.0853   0.00    1.3
2015/04/29 09:02:27.000   35.661362461  139.678143904   117.0595   2  11   0.0933   0.0859   0.2296  -0.0113  -0.0429  -0.0839   0.00    1.3
2015/04/29 09:02:28.000   35.661362423  139.678143876   117.0601   2  11   0.0921   0.0849   0.2268  -0.0114  -0.0422  -0.0826   0.00    1.3
2015/04/29 09:02:29.000   35.661362423  139.678143894   117.0329   2  11   0.0909   0.0840   0.2240  -0.0116  -0.0416  -0.0813   0.00    1.3
2015/04/29 09:02:30.000   35.661362469  139.678143820   117.0437   2  11   0.0898   0.0831   0.2213  -0.0117  -0.0410  -0.0800   0.00    1.3
2015/04/29 09:02:31.000   35.661362469  139.678143763   117.0529   2  11   0.0886   0.0822   0.2186  -0.0119  -0.0405  -0.0788   0.00    1.3
2015/04/29 09:02:32.000   35.661362486  139.678143834   117.0448   2  11   0.0875   0.0814   0.2160  -0.0120  -0.0399  -0.0776   0.00    1.3
2015/04/29 09:02:33.000   35.661362480  139.678143857   117.0317   2  11   0.0865   0.0806   0.2135  -0.0122  -0.0393  -0.0764   0.00    1.3
2015/04/29 09:02:34.000   35.661362469  139.678143844   117.0408   2  11   0.0854   0.0798   0.2111  -0.0123  -0.0388  -0.0753   0.00    1.3
2015/04/29 09:02:35.000   35.661362481  139.678143879   117.0437   2  11   0.0844   0.0790   0.2087  -0.0125  -0.0383  -0.0742   0.00    1.3
2015/04/29 09:02:36.000   35.661362535  139.678143880   117.0419   2  11   0.0834   0.0783   0.2064  -0.0126  -0.0378  -0.0731   0.00    1.3
2015/04/29 09:02:37.000   35.661362518  139.678143916   117.0513   2  11   0.0825   0.0776   0.2041  -0.0126  -0.0373  -0.0720   0.00    1.3
2015/04/29 09:02:38.000   35.661362506  139.678143909   117.0506   2  11   0.0815   0.0769   0.2019  -0.0128  -0.0368  -0.0709   0.00    1.3
2015/04/29 09:02:39.000   35.661362483  139.678143943   117.0487   2  11   0.0806   0.0762   0.1998  -0.0129  -0.0363  -0.0699   0.00    1.3
2015/04/29 09:02:40.000   35.661362490  139.678143941   117.0536   2  11   0.0797   0.0755   0.1977  -0.0130  -0.0359  -0.0688   0.00    1.3
2015/04/29 09:02:41.000   35.661362491  139.678143985   117.0523   2  11   0.0788   0.0749   0.1956  -0.0131  -0.0354  -0.0678   0.00    1.3
2015/04/29 09:02:42.000   35.661362505  139.678144036   117.0437   2  11   0.0779   0.0742   0.1936  -0.0132  -0.0349  -0.0669   0.00    1.3
2015/04/29 09:02:43.000   35.661362463  139.678144041   117.0411   2  11   0.0771   0.0736   0.1916  -0.0133  -0.0345  -0.0659   0.00    1.3
2015/04/29 09:02:44.000   35.661362491  139.678144062   117.0312   2  11   0.0763   0.0730   0.1897  -0.0134  -0.0341  -0.0649   0.00    1.3
2015/04/29 09:02:45.000   35.661362505  139.678144075   117.0530   2  11   0.0754   0.0724   0.1878  -0.0135  -0.0337  -0.0640   0.00    1.3
2015/04/29 09:02:46.000   35.661362462  139.678144098   117.0615   2  11   0.0746   0.0719   0.1859  -0.0135  -0.0333  -0.0631   0.00    1.2
2015/04/29 09:02:47.000   35.661362455  139.678144096   117.0789   2  11   0.0739   0.0713   0.1841  -0.0136  -0.0328  -0.0622   0.00    1.2
2015/04/29 09:02:48.000   35.661362422  139.678144102   117.0679   2  11   0.0731   0.0707   0.1823  -0.0137  -0.0324  -0.0613   0.00    1.2
2015/04/29 09:02:49.000   35.661362346  139.678144125   117.0685   2  11   0.0723   0.0702   0.1806  -0.0138  -0.0321  -0.0604   0.00    1.1
2015/04/29 09:02:50.000   35.661362341  139.678144093   117.0678   2  11   0.0716   0.0697   0.1789  -0.0139  -0.0317  -0.0596   0.00    1.1
2015/04/29 09:02:51.000   35.661362331  139.678144091   117.0623   2  11   0.0709   0.0692   0.1772  -0.0139  -0.0313  -0.0587   0.00    1.1
2015/04/29 09:02:52.000   35.661362372  139.678144124   117.0667   2  11   0.0702   0.0687   0.1756  -0.0140  -0.0309  -0.0579   0.00    1.1
2015/04/29 09:02:53.000   35.661362378  139.678144182   117.0526   2  11   0.0695   0.0682   0.1740  -0.0141  -0.0306  -0.0570   0.00    1.1
2015/04/29 09:02:54.000   35.661362349  139.678144186   117.0653   2  11   0.0688   0.0677   0.1724  -0.0141  -0.0302  -0.0562   0.00    1.1
2015/04/29 09:02:55.000   35.661362336  139.678144210   117.0630   2  11   0.0681   0.0672   0.1708  -0.0143  -0.0299  -0.0554   0.00    1.1
2015/04/29 09:02:56.000   35.661362328  139.678144235   117.0670   2  11   0.0675   0.0668   0.1693  -0.0143  -0.0295  -0.0546   0.00    1.1
2015/04/29 09:02:57.000   35.661362309  139.678144219   117.0677   2  11   0.0668   0.0663   0.1678  -0.0143  -0.0292  -0.0539   0.00    1.1
2015/04/29 09:02:58.000   35.661362261  139.678144270   117.0661   2  11   0.0662   0.0659   0.1663  -0.0144  -0.0289  -0.0531   0.00    1.0
2015/04/29 09:02:59.000   35.661362309  139.678144287   117.0589   2  11   0.0656   0.0654   0.1649  -0.0145  -0.0285  -0.0524   0.00    1.0
2015/04/29 09:03:00.000   35.661362293  139.678144336   117.0650   2  11   0.0650   0.0650   0.1635  -0.0145  -0.0282  -0.0516   0.00    1.0
2015/04/29 09:03:01.000   35.661362284  139.678144301   117.0701   2  11   0.0644   0.0646   0.1621  -0.0146  -0.0279  -0.0509   0.00    1.0
2015/04/29 09:03:02.000   35.661362283  139.678144323   117.0668   2  11   0.0638   0.0641   0.1607  -0.0146  -0.0276  -0.0502   0.00    1.0
2015/04/29 09:03:03.000   35.661362232  139.678144328   117.0691   2  11   0.0632   0.0637   0.1593  -0.0148  -0.0273  -0.0495   0.00    1.0
2015/04/29 09:03:04.000   35.661362266  139.678144358   117.0587   2  11   0.0626   0.0633   0.1580  -0.0147  -0.0270  -0.0488   0.00    1.0
2015/04/29 09:03:05.000   35.661362252  139.678144402   117.0679   2  11   0.0621   0.0630   0.1567  -0.0148  -0.0267  -0.0481   0.00    1.0
2015/04/29 09:03:06.000   35.661362229  139.678144405   117.0752   2  11   0.0615   0.0626   0.1554  -0.0148  -0.0264  -0.0474   0.00    1.0
2015/04/29 09:03:07.000   35.661362204  139.678144369   117.0745   2  11   0.0610   0.0622   0.1541  -0.0148  -0.0261  -0.0467   0.00    1.1
2015/04/29 09:03:08.000   35.661362183  139.678144334   117.0783   2  11   0.0604   0.0618   0.1529  -0.0149  -0.0259  -0.0460   0.00    1.1
2015/04/29 09:03:09.000   35.661362214  139.678144307   117.0888   2  11   0.0599   0.0615   0.1517  -0.0150  -0.0256  -0.0454   0.00    1.1
2015/04/29 09:03:10.000   35.661362207  139.678144362   117.0872   2  11   0.0594   0.0611   0.1504  -0.0150  -0.0253  -0.0447   0.00    1.1
2015/04/29 09:03:11.000   35.661362201  139.678144332   117.0897   2  11   0.0589   0.0608   0.1493  -0.0150  -0.0251  -0.0441   0.00    1.1
2015/04/29 09:03:12.000   35.661362190  139.678144317   117.0862   2  11   0.0584   0.0604   0.1481  -0.0150  -0.0248  -0.0435   0.00    1.1
2015/04/29 09:03:13.000   35.661362197  139.678144347   117.0871   2  11   0.0578   0.0601   0.1469  -0.0151  -0.0245  -0.0428   0.00    1.1
2015/04/29 09:03:14.000   35.661362185  139.678144373   117.0836   2  11   0.0574   0.0597   0.1458  -0.0151  -0.0243  -0.0422   0.00    1.1
2015/04/29 09:03:15.000   35.661362161  139.678144395   117.0886   2  11   0.0569   0.0594   0.1447  -0.0151  -0.0240  -0.0416   0.00    1.1
2015/04/29 09:03:16.000   35.661362169  139.678144415   117.0925   2  11   0.0564   0.0591   0.1436  -0.0151  -0.0238  -0.0410   0.00    1.1
2015/04/29 09:03:17.000   35.661362138  139.678144429   117.0884   2  11   0.0560   0.0588   0.1425  -0.0152  -0.0235  -0.0404   0.00    1.1
2015/04/29 09:03:18.000   35.661362128  139.678144436   117.0974   2  11   0.0555   0.0585   0.1414  -0.0152  -0.0233  -0.0398   0.00    1.1
2015/04/29 09:03:19.000   35.661362110  139.678144467   117.0902   2  11   0.0550   0.0581   0.1403  -0.0152  -0.0231  -0.0392   0.00    1.1
2015/04/29 09:03:20.000   35.661362024  139.678144490   117.1075   2  11   0.0546   0.0578   0.1393  -0.0152  -0.0228  -0.0386   0.00    1.1
2015/04/29 09:03:21.000   35.661362033  139.678144487   117.1088   2  11   0.0541   0.0575   0.1383  -0.0153  -0.0226  -0.0381   0.00    1.1
2015/04/29 09:03:22.000   35.661362032  139.678144453   117.1134   2  11   0.0537   0.0573   0.1372  -0.0153  -0.0224  -0.0375   0.00    1.1
2015/04/29 09:03:23.000   35.661361975  139.678144469   117.1165   2  11   0.0533   0.0570   0.1362  -0.0153  -0.0222  -0.0370   0.00    1.1
2015/04/29 09:03:24.000   35.661361970  139.678144450   117.1162   2  11   0.0529   0.0567   0.1352  -0.0154  -0.0220  -0.0364   0.00    1.1
2015/04/29 09:03:25.000   35.661361938  139.678144493   117.1208   2  11   0.0524   0.0564   0.1343  -0.0154  -0.0218  -0.0359   0.00    1.1
2015/04/29 09:03:26.000   35.661361902  139.678144533   117.1252   2  11   0.0520   0.0561   0.1333  -0.0154  -0.0215  -0.0353   0.00    1.1
2015/04/29 09:03:27.000   35.661361901  139.678144505   117.1284   2  11   0.0516   0.0558   0.1324  -0.0154  -0.0213  -0.0348   0.00    1.1
2015/04/29 09:03:28.000   35.661361869  139.678144530   117.1277   2  11   0.0512   0.0556   0.1314  -0.0154  -0.0211  -0.0343   0.00    1.1
2015/04/29 09:03:29.000   35.661361827  139.678144543   117.1227   2  11   0.0508   0.0553   0.1305  -0.0155  -0.0210  -0.0338   0.00    1.1
2015/04/29 09:03:30.000   35.661361786  139.678144548   117.1294   2  11   0.0504   0.0550   0.1296  -0.0155  -0.0207  -0.0332   0.00    1.1
2015/04/29 09:03:31.000   35.661361754  139.678144554   117.1289   2  11   0.0500   0.0548   0.1287  -0.0155  -0.0205  -0.0327   0.00    1.1
2015/04/29 09:03:32.000   35.661361722  139.678144547   117.1263   2  11   0.0496   0.0545   0.1278  -0.0155  -0.0204  -0.0322   0.00    1.1
2015/04/29 09:03:33.000   35.661361701  139.678144513   117.1311   2  11   0.0493   0.0543   0.1269  -0.0155  -0.0202  -0.0317   0.00    1.1
2015/04/29 09:03:34.000   35.661361685  139.678144513   117.1237   2  11   0.0489   0.0540   0.1261  -0.0155  -0.0200  -0.0312   0.00    1.1
2015/04/29 09:03:35.000   35.661361671  139.678144470   117.1331   2  11   0.0485   0.0538   0.1252  -0.0156  -0.0198  -0.0307   0.00    1.1
2015/04/29 09:03:36.000   35.661361654  139.678144496   117.1221   2  11   0.0482   0.0535   0.1244  -0.0155  -0.0196  -0.0302   0.00    1.1
2015/04/29 09:03:37.000   35.661361603  139.678144493   117.1279   2  11   0.0479   0.0533   0.1235  -0.0155  -0.0194  -0.0298   0.00    1.1
2015/04/29 09:03:38.000   35.661361550  139.678144505   117.1288   2  11   0.0475   0.0531   0.1227  -0.0156  -0.0193  -0.0293   0.00    1.1
2015/04/29 09:03:39.000   35.661361504  139.678144489   117.1323   2  11   0.0471   0.0528   0.1219  -0.0156  -0.0191  -0.0288   0.00    1.1
2015/04/29 09:03:40.000   35.661361469  139.678144489   117.1308   2  11   0.0468   0.0526   0.1211  -0.0156  -0.0189  -0.0283   0.00    1.1
2015/04/29 09:03:41.000   35.661361419  139.678144505   117.1357   2  11   0.0465   0.0524   0.1203  -0.0156  -0.0188  -0.0279   0.00    1.1
2015/04/29 09:03:42.000   35.661361392  139.678144474   117.1488   2  11   0.0461   0.0521   0.1195  -0.0156  -0.0186  -0.0274   0.00    1.1
2015/04/29 09:03:43.000   35.661361362  139.678144480   117.1454   2  11   0.0458   0.0519   0.1187  -0.0156  -0.0184  -0.0270   0.00    1.1
2015/04/29 09:03:44.000   35.661361332  139.678144495   117.1456   2  11   0.0455   0.0517   0.1180  -0.0156  -0.0183  -0.0265   0.00    1.1
2015/04/29 09:03:45.000   35.661361289  139.678144513   117.1545   2  11   0.0451   0.0515   0.1172  -0.0156  -0.0181  -0.0261   0.00    1.1
2015/04/29 09:03:46.000   35.661361276  139.678144562   117.1468   2  11   0.0449   0.0513   0.1164  -0.0156  -0.0180  -0.0256   0.00    1.1
2015/04/29 09:03:47.000   35.661361249  139.678144559   117.1442   2  11   0.0446   0.0511   0.1157  -0.0156  -0.0178  -0.0252   0.00    1.1
2015/04/29 09:03:48.000   35.661361239  139.678144556   117.1481   2  11   0.0443   0.0508   0.1150  -0.0156  -0.0176  -0.0248   0.00    1.1
2015/04/29 09:03:49.000   35.661361211  139.678144555   117.1485   2  11   0.0439   0.0506   0.1143  -0.0156  -0.0175  -0.0244   0.00    1.1
2015/04/29 09:03:50.000   35.661361173  139.678144589   117.1333   2  11   0.0436   0.0504   0.1135  -0.0156  -0.0174  -0.0239   0.00    1.1
2015/04/29 09:03:51.000   35.661361122  139.678144573   117.1378   2  11   0.0433   0.0502   0.1128  -0.0156  -0.0172  -0.0235   0.00    1.1
2015/04/29 09:03:52.000   35.661361084  139.678144554   117.1438   2  11   0.0430   0.0500   0.1121  -0.0156  -0.0171  -0.0231   0.00    1.1
2015/04/29 09:03:53.000   35.661361072  139.678144572   117.1401   2  11   0.0428   0.0498   0.1114  -0.0157  -0.0169  -0.0227   0.00    1.1
2015/04/29 09:03:54.000   35.661361056  139.678144590   117.1396   2  11   0.0425   0.0496   0.1108  -0.0157  -0.0169  -0.0222   0.00    1.1
2015/04/29 09:03:55.000   35.661361000  139.678144626   117.1412   2  11   0.0422   0.0495   0.1101  -0.0156  -0.0167  -0.0218   0.00    1.1
2015/04/29 09:03:56.000   35.661360967  139.678144635   117.1394   2  11   0.0419   0.0493   0.1094  -0.0156  -0.0166  -0.0214   0.00    1.1
2015/04/29 09:03:57.000   35.661360928  139.678144636   117.1304   2  11   0.0416   0.0491   0.1088  -0.0156  -0.0164  -0.0210   0.00    1.1
2015/04/29 09:03:58.000   35.661360889  139.678144654   117.1348   2  11   0.0414   0.0489   0.1081  -0.0156  -0.0163  -0.0206   0.00    1.1
2015/04/29 09:03:59.000   35.661360843  139.678144667   117.1290   2  11   0.0411   0.0487   0.1075  -0.0156  -0.0162  -0.0202   0.00    1.1
2015/04/29 09:04:00.000   35.661360816  139.678144681   117.1276   2  11   0.0408   0.0485   0.1068  -0.0156  -0.0160  -0.0198   0.00    1.1
2015/04/29 09:04:01.000   35.661360797  139.678144662   117.1305   2  11   0.0406   0.0484   0.1062  -0.0156  -0.0159  -0.0194   0.00    1.1
2015/04/29 09:04:02.000   35.661360781  139.678144679   117.1334   2  11   0.0403   0.0482   0.1056  -0.0156  -0.0158  -0.0191   0.00    1.1
2015/04/29 09:04:03.000   35.661360737  139.678144671   117.1286   2  11   0.0400   0.0480   0.1049  -0.0156  -0.0157  -0.0187   0.00    1.1
2015/04/29 09:04:04.000   35.661360741  139.678144671   117.1325   2  11   0.0398   0.0478   0.1043  -0.0156  -0.0156  -0.0183   0.00    1.1
2015/04/29 09:04:05.000   35.661360692  139.678144686   117.1298   2  11   0.0396   0.0477   0.1037  -0.0156  -0.0155  -0.0179   0.00    1.1
2015/04/29 09:04:06.000   35.661360683  139.678144682   117.1300   2  11   0.0393   0.0475   0.1031  -0.0156  -0.0153  -0.0175   0.00    1.1
2015/04/29 09:04:07.000   35.661360639  139.678144745   117.1214   2  11   0.0390   0.0473   0.1025  -0.0156  -0.0152  -0.0171   0.00    1.1
2015/04/29 09:04:08.000   35.661360613  139.678144750   117.1321   2  11   0.0388   0.0471   0.1019  -0.0156  -0.0151  -0.0168   0.00    1.1
2015/04/29 09:04:09.000   35.661360586  139.678144766   117.1175   2  11   0.0386   0.0470   0.1014  -0.0156  -0.0150  -0.0163   0.00    1.1
2015/04/29 09:04:10.000   35.661360550  139.678144767   117.1247   2  11   0.0383   0.0468   0.1008  -0.0156  -0.0149  -0.0160   0.00    1.1
2015/04/29 09:04:11.000   35.661360529  139.678144774   117.1170   2  11   0.0381   0.0466   0.1002  -0.0156  -0.0148  -0.0156   0.00    1.1
2015/04/29 09:04:12.000   35.661360507  139.678144782   117.1169   2  11   0.0379   0.0465   0.0997  -0.0156  -0.0147  -0.0152   0.00    1.1
2015/04/29 09:04:13.000   35.661360447  139.678144803   117.1124   2  11   0.0376   0.0463   0.0991  -0.0156  -0.0146  -0.0148   0.00    1.1
2015/04/29 09:04:14.000   35.661360410  139.678144803   117.1200   2  11   0.0374   0.0461   0.0986  -0.0155  -0.0145  -0.0145   0.00    1.1
2015/04/29 09:04:15.000   35.661360403  139.678144809   117.1120   2  11   0.0372   0.0460   0.0980  -0.0156  -0.0144  -0.0141   0.00    1.1
2015/04/29 09:04:16.000   35.661360374  139.678144846   117.1133   2  11   0.0369   0.0458   0.0975  -0.0156  -0.0143  -0.0137   0.00    1.1
2015/04/29 09:04:17.000   35.661360346  139.678144848   117.1077   2  11   0.0367   0.0457   0.0969  -0.0155  -0.0142  -0.0134   0.00    1.1
2015/04/29 09:04:18.000   35.661360326  139.678144869   117.0976   2  11   0.0365   0.0455   0.0964  -0.0155  -0.0141  -0.0130   0.00    1.1
2015/04/29 09:04:19.000   35.661360313  139.678144915   117.0982   2  11   0.0363   0.0454   0.0959  -0.0155  -0.0140  -0.0126   0.00    1.1
2015/04/29 09:04:20.000   35.661360275  139.678144906   117.0978   2  11   0.0361   0.0452   0.0954  -0.0155  -0.0139  -0.0122   0.00    1.1
2015/04/29 09:04:21.000   35.661360212  139.678144927   117.0953   2  11   0.0358   0.0451   0.0948  -0.0155  -0.0139  -0.0118   0.00    1.1
2015/04/29 09:04:22.000   35.661360218  139.678144914   117.0905   2  11   0.0357   0.0449   0.0943  -0.0155  -0.0138  -0.0115   0.00    1.1
2015/04/29 09:04:23.000   35.661360171  139.678144961   117.0923   2  11   0.0354   0.0448   0.0938  -0.0154  -0.0137  -0.0111   0.00    1.1
2015/04/29 09:04:24.000   35.661360152  139.678144955   117.0808   2  11   0.0353   0.0447   0.0933  -0.0154  -0.0136  -0.0106   0.00    1.1
2015/04/29 09:04:25.000   35.661360110  139.678144967   117.0773   2  11   0.0350   0.0445   0.0928  -0.0155  -0.0135  -0.0103   0.00    1.1
2015/04/29 09:04:26.000   35.661360082  139.678145009   117.0798   2  11   0.0349   0.0444   0.0923  -0.0155  -0.0135  -0.0099   0.00    1.1
2015/04/29 09:04:27.000   35.661360070  139.678145012   117.0830   2  11   0.0347   0.0442   0.0919  -0.0154  -0.0133  -0.0095   0.00    1.1
2015/04/29 09:04:28.000   35.661360030  139.678145017   117.0768   2  11   0.0345   0.0441   0.0914  -0.0154  -0.0133  -0.0091   0.00    1.1
2015/04/29 09:04:29.000   35.661360007  139.678145030   117.0689   2  11   0.0343   0.0440   0.0909  -0.0154  -0.0132  -0.0086   0.00    1.1
2015/04/29 09:04:30.000   35.661359988  139.678145060   117.0782   2  11   0.0341   0.0438   0.0904  -0.0154  -0.0131  -0.0082   0.00    1.1
2015/04/29 09:04:31.000   35.661359968  139.678145070   117.0720   2  11   0.0339   0.0437   0.0900  -0.0154  -0.0130  -0.0078   0.00    1.1
2015/04/29 09:04:32.000   35.661359915  139.678145104   117.0688   2  11   0.0337   0.0436   0.0895  -0.0154  -0.0130  -0.0073   0.00    1.1
2015/04/29 09:04:33.000   35.661359897  139.678145118   117.0628   2  11   0.0335   0.0434   0.0890  -0.0154  -0.0129  -0.0069   0.00    1.1
2015/04/29 09:04:34.000   35.661359874  139.678145124   117.0658   2  11   0.0334   0.0433   0.0886  -0.0154  -0.0128  -0.0064   0.00    1.1
2015/04/29 09:04:35.000   35.661359836  139.678145151   117.0605   2  11   0.0331   0.0432   0.0881  -0.0153  -0.0128  -0.0059   0.00    1.1
2015/04/29 09:04:36.000   35.661359797  139.678145187   117.0539   2  11   0.0330   0.0430   0.0877  -0.0153  -0.0127  -0.0053   0.00    1.1
2015/04/29 09:04:37.000   35.661359811  139.678145235   117.0485   2  11   0.0329   0.0429   0.0872  -0.0154  -0.0126  -0.0047   0.00    1.1
2015/04/29 09:04:38.000   35.661359779  139.678145268   117.0523   2  11   0.0327   0.0428   0.0868  -0.0153  -0.0126  -0.0040   0.00    1.1
2015/04/29 09:04:39.000   35.661359758  139.678145309   117.0514   2  11   0.0325   0.0426   0.0864  -0.0153  -0.0125  -0.0035   0.00    1.1
2015/04/29 09:04:40.000   35.661359745  139.678145336   117.0455   2  11   0.0323   0.0425   0.0859  -0.0153  -0.0124  -0.0024   0.00    1.1
2015/04/29 09:04:41.000   35.661359736  139.678145369   117.0447   2  11   0.0321   0.0424   0.0855  -0.0153  -0.0124  -0.0007   0.00    1.1
2015/04/29 09:04:42.000   35.661359712  139.678145388   117.0395   2  11   0.0320   0.0423   0.0851  -0.0153  -0.0123   0.0022   0.00    1.1
2015/04/29 09:04:43.000   35.661359699  139.678145426   117.0434   2  11   0.0318   0.0421   0.0847  -0.0153  -0.0122   0.0032   0.00    1.1
2015/04/29 09:04:44.000   35.661359693  139.678145449   117.0390   2  11   0.0316   0.0421   0.0843  -0.0153  -0.0122   0.0039   0.00    1.1
2015/04/29 09:04:45.000   35.661359669  139.678145475   117.0432   2  11   0.0314   0.0419   0.0838  -0.0153  -0.0121   0.0044   0.00    1.1
2015/04/29 09:04:46.000   35.661359645  139.678145494   117.0348   2  11   0.0313   0.0418   0.0834  -0.0152  -0.0121   0.0049   0.00    1.1
2015/04/29 09:04:47.000   35.661359610  139.678145519   117.0312   2  11   0.0311   0.0417   0.0830  -0.0152  -0.0120   0.0054   0.00    1.1
2015/04/29 09:04:48.000   35.661359583  139.678145535   117.0233   2  11   0.0310   0.0416   0.0826  -0.0152  -0.0119   0.0057   0.00    1.1
2015/04/29 09:04:49.000   35.661359566  139.678145539   117.0189   2  11   0.0308   0.0414   0.0822  -0.0152  -0.0119   0.0060   0.00    1.1
2015/04/29 09:04:50.000   35.661359542  139.678145523   117.0201   2  11   0.0306   0.0413   0.0818  -0.0152  -0.0118   0.0064   0.00    1.1
2015/04/29 09:04:51.000   35.661359551  139.678145538   117.0257   2  11   0.0305   0.0412   0.0814  -0.0152  -0.0118   0.0067   0.00    1.1
2015/04/29 09:04:52.000   35.661359512  139.678145567   117.0192   2  11   0.0304   0.0411   0.0811  -0.0152  -0.0117   0.0070   0.00    1.1
2015/04/29 09:04:53.000   35.661359514  139.678145602   117.0155   2  11   0.0302   0.0410   0.0807  -0.0152  -0.0117   0.0073   0.00    1.1
2015/04/29 09:04:54.000   35.661359493  139.678145639   117.0133   2  11   0.0301   0.0409   0.0803  -0.0151  -0.0116   0.0075   0.00    1.1
2015/04/29 09:04:55.000   35.661359489  139.678145637   117.0124   2  11   0.0299   0.0408   0.0799  -0.0151  -0.0116   0.0078   0.00    1.1
2015/04/29 09:04:56.000   35.661359445  139.678145645   117.0122   2  11   0.0297   0.0407   0.0795  -0.0151  -0.0115   0.0080   0.00    1.1
2015/04/29 09:04:57.000   35.661359464  139.678145666   117.0111   2  11   0.0296   0.0405   0.0792  -0.0151  -0.0115   0.0082   0.00    1.1
2015/04/29 09:04:58.000   35.661359423  139.678145664   117.0094   2  11   0.0295   0.0404   0.0788  -0.0151  -0.0114   0.0083   0.00    1.0
2015/04/29 09:04:59.000   35.661359419  139.678145670   117.0036   2  11   0.0293   0.0403   0.0784  -0.0150  -0.0114   0.0085   0.00    1.0
2015/04/29 09:05:00.000   35.661359419  139.678145677   116.9994   2  11   0.0292   0.0402   0.0781  -0.0151  -0.0113   0.0087   0.00    1.0
2015/04/29 09:05:01.000   35.661359406  139.678145696   117.0057   2  11   0.0290   0.0402   0.0777  -0.0151  -0.0113   0.0089   0.00    1.0
2015/04/29 09:05:02.000   35.661359417  139.678145687   117.0011   2  11   0.0289   0.0400   0.0774  -0.0150  -0.0112   0.0090   0.00    1.0
2015/04/29 09:05:03.000   35.661359385  139.678145700   116.9950   2  11   0.0288   0.0399   0.0770  -0.0150  -0.0112   0.0092   0.00    1.0
2015/04/29 09:05:04.000   35.661359381  139.678145687   116.9885   2  11   0.0286   0.0399   0.0767  -0.0150  -0.0112   0.0094   0.00    1.0
2015/04/29 09:05:05.000   35.661359353  139.678145720   116.9866   2  11   0.0285   0.0397   0.0763  -0.0150  -0.0111   0.0095   0.00    1.0
2015/04/29 09:05:06.000   35.661359350  139.678145716   116.9855   2  11   0.0283   0.0396   0.0760  -0.0150  -0.0110   0.0096   0.00    1.0
2015/04/29 09:05:07.000   35.661359332  139.678145716   116.9890   2  11   0.0282   0.0395   0.0756  -0.0149  -0.0110   0.0097   0.00    1.0
2015/04/29 09:05:08.000   35.661359284  139.678145733   116.9961   2  11   0.0280   0.0394   0.0753  -0.0149  -0.0110   0.0098   0.00    1.0
2015/04/29 09:05:09.000   35.661359302  139.678145710   116.9865   2  11   0.0280   0.0393   0.0749  -0.0150  -0.0110   0.0100   0.00    1.0
2015/04/29 09:05:10.000   35.661359276  139.678145730   116.9843   2  11   0.0278   0.0392   0.0746  -0.0149  -0.0109   0.0100   0.00    1.0
2015/04/29 09:05:11.000   35.661359261  139.678145723   116.9875   2  11   0.0277   0.0391   0.0743  -0.0149  -0.0109   0.0102   0.00    1.0
2015/04/29 09:05:12.000   35.661359269  139.678145741   116.9842   2  11   0.0275   0.0390   0.0740  -0.0149  -0.0108   0.0103   0.00    1.0
2015/04/29 09:05:13.000   35.661359254  139.678145722   116.9775   2  11   0.0274   0.0389   0.0736  -0.0149  -0.0108   0.0104   0.00    1.0
2015/04/29 09:05:14.000   35.661359221  139.678145721   116.9788   2  11   0.0273   0.0388   0.0733  -0.0149  -0.0107   0.0104   0.00    1.0
2015/04/29 09:05:15.000   35.661359210  139.678145701   116.9826   2  11   0.0272   0.0387   0.0730  -0.0148  -0.0107   0.0106   0.00    1.0
2015/04/29 09:05:16.000   35.661359202  139.678145730   116.9779   2  11   0.0271   0.0386   0.0727  -0.0148  -0.0107   0.0107   0.00    1.0
2015/04/29 09:05:17.000   35.661359209  139.678145723   116.9812   2  11   0.0269   0.0385   0.0724  -0.0148  -0.0107   0.0107   0.00    1.0
2015/04/29 09:05:18.000   35.661359185  139.678145726   116.9772   2  11   0.0268   0.0385   0.0720  -0.0148  -0.0107   0.0109   0.00    1.0
2015/04/29 09:05:19.000   35.661359179  139.678145729   116.9761   2  11   0.0267   0.0384   0.0717  -0.0148  -0.0106   0.0109   0.00    1.0
2015/04/29 09:05:20.000   35.661359178  139.678145708   116.9817   2  11   0.0265   0.0382   0.0714  -0.0148  -0.0105   0.0109   0.00    1.0
2015/04/29 09:05:21.000   35.661359189  139.678145711   116.9763   2  11   0.0265   0.0382   0.0711  -0.0148  -0.0105   0.0110   0.00    1.0
2015/04/29 09:05:22.000   35.661359168  139.678145723   116.9784   2  11   0.0264   0.0381   0.0708  -0.0148  -0.0105   0.0111   0.00    1.0
2015/04/29 09:05:23.000   35.661359175  139.678145747   116.9792   2  11   0.0263   0.0380   0.0705  -0.0147  -0.0105   0.0112   0.00    1.0
2015/04/29 09:05:24.000   35.661359160  139.678145714   116.9768   2  11   0.0261   0.0379   0.0702  -0.0147  -0.0104   0.0112   0.00    1.0
2015/04/29 09:05:25.000   35.661359169  139.678145725   116.9795   2  11   0.0260   0.0378   0.0699  -0.0147  -0.0104   0.0112   0.00    1.0
2015/04/29 09:05:26.000   35.661359138  139.678145705   116.9825   2  11   0.0259   0.0377   0.0696  -0.0147  -0.0103   0.0113   0.00    1.0
2015/04/29 09:05:27.000   35.661359147  139.678145724   116.9806   2  11   0.0258   0.0376   0.0693  -0.0147  -0.0103   0.0114   0.00    1.0
2015/04/29 09:05:28.000   35.661359145  139.678145719   116.9771   2  11   0.0257   0.0375   0.0690  -0.0147  -0.0103   0.0114   0.00    1.0
2015/04/29 09:05:29.000   35.661359130  139.678145694   116.9835   2  11   0.0255   0.0374   0.0688  -0.0146  -0.0102   0.0114   0.00    1.0
2015/04/29 09:05:30.000   35.661359147  139.678145694   116.9852   2  11   0.0255   0.0374   0.0685  -0.0147  -0.0102   0.0115   0.00    1.0
2015/04/29 09:05:31.000   35.661359128  139.678145707   116.9870   2  11   0.0253   0.0373   0.0682  -0.0146  -0.0102   0.0115   0.00    1.0
2015/04/29 09:05:32.000   35.661359131  139.678145690   116.9897   2  11   0.0252   0.0372   0.0679  -0.0146  -0.0102   0.0115   0.00    1.0
2015/04/29 09:05:33.000   35.661359110  139.678145672   116.9907   2  11   0.0251   0.0371   0.0676  -0.0146  -0.0101   0.0116   0.00    1.0
2015/04/29 09:05:34.000   35.661359093  139.678145678   116.9925   2  11   0.0250   0.0370   0.0673  -0.0146  -0.0101   0.0116   0.00    1.0
2015/04/29 09:05:35.000   35.661359086  139.678145672   116.9922   2  11   0.0249   0.0370   0.0671  -0.0146  -0.0102   0.0117   0.00    1.0
2015/04/29 09:05:36.000   35.661359095  139.678145655   116.9937   2  11   0.0248   0.0369   0.0668  -0.0145  -0.0101   0.0117   0.00    1.0
2015/04/29 09:05:37.000   35.661359081  139.678145638   116.9955   2  11   0.0247   0.0368   0.0665  -0.0145  -0.0101   0.0118   0.00    1.0
2015/04/29 09:05:38.000   35.661359065  139.678145649   116.9972   2  11   0.0246   0.0367   0.0663  -0.0145  -0.0101   0.0118   0.00    1.0
2015/04/29 09:05:39.000   35.661359063  139.678145617   116.9982   2  11   0.0246   0.0366   0.0660  -0.0145  -0.0100   0.0118   0.00    1.0
2015/04/29 09:05:40.000   35.661359072  139.678145588   116.9915   2  11   0.0244   0.0366   0.0657  -0.0145  -0.0100   0.0118   0.00    1.0
2015/04/29 09:05:41.000   35.661359062  139.678145593   116.9947   2  11   0.0243   0.0364   0.0655  -0.0145  -0.0100   0.0119   0.00    1.0
2015/04/29 09:05:42.000   35.661359068  139.678145580   116.9982   2  11   0.0243   0.0364   0.0652  -0.0144  -0.0100   0.0118   0.00    1.0
2015/04/29 09:05:43.000   35.661359055  139.678145601   116.9947   2  11   0.0241   0.0363   0.0649  -0.0144  -0.0099   0.0119   0.00    1.0
2015/04/29 09:05:44.000   35.661359024  139.678145599   116.9985   2  11   0.0241   0.0362   0.0647  -0.0145  -0.0099   0.0119   0.00    1.0
2015/04/29 09:05:45.000   35.661359024  139.678145608   116.9957   2  11   0.0239   0.0361   0.0644  -0.0144  -0.0099   0.0120   0.00    1.0
2015/04/29 09:05:46.000   35.661359018  139.678145583   117.0070   2  11   0.0238   0.0361   0.0642  -0.0144  -0.0099   0.0119   0.00    1.0
2015/04/29 09:05:47.000   35.661359033  139.678145579   116.9963   2  11   0.0237   0.0360   0.0639  -0.0144  -0.0099   0.0120   0.00    1.0
2015/04/29 09:05:48.000   35.661359034  139.678145561   116.9924   2  11   0.0236   0.0359   0.0637  -0.0144  -0.0099   0.0121   0.00    1.0
2015/04/29 09:05:49.000   35.661359017  139.678145555   116.9919   2  11   0.0236   0.0358   0.0634  -0.0143  -0.0098   0.0120   0.00    1.0
2015/04/29 09:05:50.000   35.661359023  139.678145537   116.9962   2  11   0.0235   0.0358   0.0632  -0.0143  -0.0098   0.0120   0.00    1.0
2015/04/29 09:05:51.000   35.661359017  139.678145540   116.9933   2  11   0.0233   0.0357   0.0630  -0.0143  -0.0098   0.0120   0.00    1.0
2015/04/29 09:05:52.000   35.661359016  139.678145567   116.9861   2  11   0.0233   0.0356   0.0627  -0.0143  -0.0098   0.0121   0.00    1.0
2015/04/29 09:05:53.000   35.661359003  139.678145538   116.9944   2  11   0.0232   0.0355   0.0625  -0.0143  -0.0097   0.0121   0.00    1.0
2015/04/29 09:05:54.000   35.661359014  139.678145552   116.9888   2  11   0.0231   0.0355   0.0622  -0.0142  -0.0097   0.0120   0.00    1.0
2015/04/29 09:05:55.000   35.661358994  139.678145515   116.9901   2  11   0.0230   0.0354   0.0620  -0.0143  -0.0097   0.0121   0.00    1.0
2015/04/29 09:05:56.000   35.661359004  139.678145517   116.9884   2  11   0.0229   0.0353   0.0618  -0.0143  -0.0097   0.0121   0.00    1.0
2015/04/29 09:05:57.000   35.661359009  139.678145515   116.9895   2  11   0.0228   0.0352   0.0615  -0.0142  -0.0096   0.0120   0.00    1.0
2015/04/29 09:05:58.000   35.661359008  139.678145506   116.9913   2  11   0.0228   0.0351   0.0613  -0.0142  -0.0096   0.0121   0.00    1.0
2015/04/29 09:05:59.000   35.661359030  139.678145494   116.9828   2  11   0.0227   0.0351   0.0611  -0.0142  -0.0096   0.0121   0.00    1.1
2015/04/29 09:06:00.000   35.661359018  139.678145481   116.9866   2  11   0.0225   0.0350   0.0608  -0.0142  -0.0096   0.0121   0.00    1.1
2015/04/29 09:06:01.000   35.661359004  139.678145470   116.9906   2  11   0.0225   0.0349   0.0606  -0.0142  -0.0096   0.0121   0.00    1.1
2015/04/29 09:06:02.000   35.661359005  139.678145471   116.9839   2  11   0.0224   0.0349   0.0604  -0.0141  -0.0096   0.0121   0.00    1.1
2015/04/29 09:06:03.000   35.661359012  139.678145481   116.9872   2  11   0.0223   0.0348   0.0601  -0.0141  -0.0096   0.0120   0.00    1.1
2015/04/29 09:06:04.000   35.661359020  139.678145453   116.9888   2  11   0.0222   0.0347   0.0599  -0.0141  -0.0095   0.0121   0.00    1.1
2015/04/29 09:06:05.000   35.661359007  139.678145456   116.9908   2  11   0.0222   0.0346   0.0597  -0.0141  -0.0095   0.0121   0.00    1.1
2015/04/29 09:06:06.000   35.661359009  139.678145447   116.9872   2  11   0.0221   0.0346   0.0595  -0.0141  -0.0095   0.0121   0.00    1.1
2015/04/29 09:06:07.000   35.661359030  139.678145445   116.9893   2  11   0.0220   0.0345   0.0593  -0.0141  -0.0094   0.0121   0.00    1.1
2015/04/29 09:06:08.000   35.661359014  139.678145429   116.9854   2  11   0.0219   0.0344   0.0591  -0.0141  -0.0094   0.0121   0.00    1.1
2015/04/29 09:06:09.000   35.661359030  139.678145423   116.9845   2  11   0.0218   0.0344   0.0588  -0.0141  -0.0095   0.0121   0.00    1.1
2015/04/29 09:06:10.000   35.661359031  139.678145409   116.9937   2  11   0.0218   0.0343   0.0586  -0.0140  -0.0095   0.0121   0.00    1.1
2015/04/29 09:06:11.000   35.661359026  139.678145409   116.9838   2  11   0.0217   0.0342   0.0584  -0.0140  -0.0095   0.0121   0.00    1.1
2015/04/29 09:06:12.000   35.661359030  139.678145380   116.9919   2  11   0.0216   0.0342   0.0582  -0.0141  -0.0094   0.0121   0.00    1.1
2015/04/29 09:06:13.000   35.661359037  139.678145342   116.9917   2  11   0.0215   0.0341   0.0580  -0.0140  -0.0095   0.0121   0.00    1.1
2015/04/29 09:06:14.000   35.661359038  139.678145348   116.9886   2  11   0.0214   0.0340   0.0578  -0.0140  -0.0094   0.0120   0.00    1.1
2015/04/29 09:06:15.000   35.661359056  139.678145315   116.9921   2  11   0.0214   0.0340   0.0576  -0.0140  -0.0094   0.0121   0.00    1.1
2015/04/29 09:06:16.000   35.661359051  139.678145275   116.9938   2  11   0.0213   0.0339   0.0574  -0.0139  -0.0093   0.0120   0.00    1.1
2015/04/29 09:06:17.000   35.661359029  139.678145277   116.9940   2  11   0.0213   0.0338   0.0572  -0.0140  -0.0093   0.0120   0.00    1.1
2015/04/29 09:06:18.000   35.661359035  139.678145273   116.9949   2  11   0.0212   0.0338   0.0570  -0.0139  -0.0094   0.0120   0.00    1.1
2015/04/29 09:06:19.000   35.661359038  139.678145266   116.9961   2  11   0.0211   0.0337   0.0568  -0.0139  -0.0093   0.0120   0.00    1.1
2015/04/29 09:06:20.000   35.661359016  139.678145229   116.9955   2  11   0.0210   0.0337   0.0565  -0.0139  -0.0093   0.0120   0.00    1.1
2015/04/29 09:06:21.000   35.661359012  139.678145218   116.9964   2  11   0.0210   0.0336   0.0564  -0.0139  -0.0093   0.0120   0.00    1.1
2015/04/29 09:06:22.000   35.661359027  139.678145212   116.9936   2  11   0.0209   0.0335   0.0562  -0.0139  -0.0093   0.0120   0.00    1.1
2015/04/29 09:06:23.000   35.661359017  139.678145222   116.9944   2  11   0.0208   0.0335   0.0560  -0.0138  -0.0093   0.0120   0.00    1.1
2015/04/29 09:06:24.000   35.661359035  139.678145212   116.9948   2  11   0.0208   0.0334   0.0558  -0.0139  -0.0092   0.0120   0.00    1.1
2015/04/29 09:06:25.000   35.661359042  139.678145177   116.9979   2  11   0.0207   0.0333   0.0556  -0.0138  -0.0093   0.0120   0.00    1.1
2015/04/29 09:06:26.000   35.661359036  139.678145173   116.9972   2  11   0.0206   0.0333   0.0554  -0.0138  -0.0093   0.0120   0.00    1.1
2015/04/29 09:06:27.000   35.661359035  139.678145165   116.9991   2  11   0.0205   0.0332   0.0552  -0.0138  -0.0092   0.0120   0.00    1.2
2015/04/29 09:06:28.000   35.661359006  139.678145170   117.0010   2  11   0.0205   0.0331   0.0550  -0.0138  -0.0092   0.0119   0.00    1.2
2015/04/29 09:06:29.000   35.661359022  139.678145134   116.9980   2  11   0.0204   0.0331   0.0548  -0.0138  -0.0092   0.0119   0.00    1.2
2015/04/29 09:06:30.000   35.661359039  139.678145124   117.0018   2  11   0.0204   0.0330   0.0546  -0.0138  -0.0092   0.0119   0.00    1.2
2015/04/29 09:06:31.000   35.661359023  139.678145125   117.0022   2  11   0.0202   0.0330   0.0544  -0.0137  -0.0092   0.0119   0.00    1.2
2015/04/29 09:06:32.000   35.661359038  139.678145135   116.9962   2  11   0.0202   0.0329   0.0543  -0.0138  -0.0092   0.0119   0.00    1.2
2015/04/29 09:06:33.000   35.661359019  139.678145121   117.0067   2  11   0.0201   0.0328   0.0541  -0.0137  -0.0092   0.0118   0.00    1.2
2015/04/29 09:06:34.000   35.661359039  139.678145092   116.9984   2  11   0.0201   0.0328   0.0539  -0.0137  -0.0092   0.0118   0.00    1.2
2015/04/29 09:06:35.000   35.661359036  139.678145085   116.9992   2  11   0.0199   0.0327   0.0537  -0.0136  -0.0091   0.0118   0.00    1.2
2015/04/29 09:06:36.000   35.661359032  139.678145103   117.0034   2  11   0.0200   0.0327   0.0535  -0.0136  -0.0092   0.0118   0.00    1.2
2015/04/29 09:06:37.000   35.661359040  139.678145059   116.9997   2  11   0.0199   0.0326   0.0533  -0.0137  -0.0091   0.0118   0.00    1.2
2015/04/29 09:06:38.000   35.661359029  139.678145082   116.9991   2  11   0.0198   0.0325   0.0532  -0.0137  -0.0091   0.0118   0.00    1.2
2015/04/29 09:06:39.000   35.661359027  139.678145040   117.0013   2  11   0.0197   0.0325   0.0530  -0.0136  -0.0091   0.0117   0.00    1.2
2015/04/29 09:06:40.000   35.661359030  139.678145023   116.9984   2  11   0.0197   0.0324   0.0528  -0.0136  -0.0091   0.0118   0.00    1.2
2015/04/29 09:06:41.000   35.661359068  139.678145035   117.0000   2  11   0.0196   0.0324   0.0527  -0.0136  -0.0091   0.0118   0.00    1.2
2015/04/29 09:06:42.000   35.661359064  139.678145013   117.0027   2  11   0.0195   0.0323   0.0525  -0.0135  -0.0090   0.0117   0.00    1.2
2015/04/29 09:06:43.000   35.661359057  139.678145004   117.0018   2  11   0.0194   0.0322   0.0523  -0.0135  -0.0091   0.0116   0.00    1.2
2015/04/29 09:06:44.000   35.661359047  139.678145013   117.0104   2  11   0.0194   0.0322   0.0521  -0.0136  -0.0091   0.0116   0.00    1.2
2015/04/29 09:06:45.000   35.661359048  139.678145006   117.0085   2  11   0.0194   0.0321   0.0520  -0.0136  -0.0091   0.0117   0.00    1.2
2015/04/29 09:06:46.000   35.661359065  139.678144978   117.0027   2  11   0.0193   0.0321   0.0518  -0.0135  -0.0091   0.0116   0.00    1.2
2015/04/29 09:06:47.000   35.661359086  139.678144989   117.0032   2  11   0.0192   0.0320   0.0516  -0.0135  -0.0090   0.0116   0.00    1.2
2015/04/29 09:06:48.000   35.661359077  139.678144948   116.9952   2  11   0.0192   0.0320   0.0515  -0.0135  -0.0090   0.0116   0.00    1.2
2015/04/29 09:06:49.000   35.661359073  139.678144940   117.0068   2  11   0.0191   0.0319   0.0513  -0.0135  -0.0090   0.0116   0.00    1.2
2015/04/29 09:06:50.000   35.661359070  139.678144924   116.9993   2  11   0.0191   0.0319   0.0511  -0.0134  -0.0090   0.0116   0.00    1.2
2015/04/29 09:06:51.000   35.661359058  139.678144907   117.0020   2  11   0.0190   0.0318   0.0510  -0.0135  -0.0090   0.0115   0.00    1.2
2015/04/29 09:06:52.000   35.661359075  139.678144910   117.0006   2  11   0.0190   0.0318   0.0508  -0.0135  -0.0090   0.0115   0.00    1.2
2015/04/29 09:06:53.000   35.661359068  139.678144871   117.0032   2  11   0.0189   0.0317   0.0506  -0.0134  -0.0090   0.0115   0.00    1.2
2015/04/29 09:06:54.000   35.661359077  139.678144876   117.0092   2  11   0.0189   0.0316   0.0505  -0.0134  -0.0090   0.0115   0.00    1.2
2015/04/29 09:06:55.000   35.661359082  139.678144898   117.0009   2  11   0.0188   0.0316   0.0503  -0.0134  -0.0090   0.0115   0.00    1.2
2015/04/29 09:06:56.000   35.661359080  139.678144851   117.0074   2  11   0.0188   0.0315   0.0502  -0.0134  -0.0090   0.0115   0.00    1.2
2015/04/29 09:06:57.000   35.661359093  139.678144845   117.0058   2  11   0.0187   0.0315   0.0500  -0.0134  -0.0090   0.0114   0.00    1.2
2015/04/29 09:06:58.000   35.661359080  139.678144837   117.0031   2  11   0.0186   0.0314   0.0498  -0.0134  -0.0089   0.0114   0.00    1.2
2015/04/29 09:06:59.000   35.661359084  139.678144841   117.0056   2  11   0.0185   0.0314   0.0497  -0.0134  -0.0089   0.0114   0.00    1.2
2015/04/29 09:07:00.000   35.661359095  139.678144814   117.0008   2  11   0.0185   0.0313   0.0495  -0.0133  -0.0089   0.0113   0.00    1.2
2015/04/29 09:07:01.000   35.661359075  139.678144816   117.0000   2  11   0.0185   0.0313   0.0494  -0.0134  -0.0089   0.0113   0.00    1.2
2015/04/29 09:07:02.000   35.661359104  139.678144785   116.9925   2  11   0.0184   0.0312   0.0492  -0.0133  -0.0089   0.0113   0.00    1.2
2015/04/29 09:07:03.000   35.661359083  139.678144768   116.9998   2  11   0.0183   0.0312   0.0491  -0.0133  -0.0089   0.0113   0.00    1.2
2015/04/29 09:07:04.000   35.661359094  139.678144773   116.9979   2  11   0.0183   0.0311   0.0489  -0.0133  -0.0089   0.0113   0.00    1.2
2015/04/29 09:07:05.000   35.661359109  139.678144772   116.9932   2  11   0.0182   0.0311   0.0488  -0.0132  -0.0089   0.0112   0.00    1.2
2015/04/29 09:07:06.000   35.661359098  139.678144756   116.9904   2  11   0.0182   0.0310   0.0486  -0.0132  -0.0089   0.0112   0.00    1.2
2015/04/29 09:07:07.000   35.661359103  139.678144737   116.9857   2  11   0.0181   0.0310   0.0485  -0.0132  -0.0089   0.0111   0.00    1.2
2015/04/29 09:07:08.000   35.661359093  139.678144762   116.9929   2  11   0.0181   0.0309   0.0483  -0.0132  -0.0089   0.0112   0.00    1.2
2015/04/29 09:07:09.000   35.661359115  139.678144763   116.9911   2  11   0.0181   0.0308   0.0482  -0.0132  -0.0089   0.0112   0.00    1.1
2015/04/29 09:07:10.000   35.661359129  139.678144734   116.9842   2  11   0.0180   0.0308   0.0480  -0.0132  -0.0089   0.0111   0.00    1.1
2015/04/29 09:07:11.000   35.661359107  139.678144730   116.9897   2  11   0.0179   0.0308   0.0479  -0.0132  -0.0088   0.0111   0.00    1.1
2015/04/29 09:07:12.000   35.661359118  139.678144700   116.9936   2  11   0.0178   0.0307   0.0478  -0.0131  -0.0088   0.0111   0.00    1.1
2015/04/29 09:07:13.000   35.661359124  139.678144689   116.9886   2  11   0.0178   0.0306   0.0476  -0.0132  -0.0089   0.0111   0.00    1.1
2015/04/29 09:07:14.000   35.661359129  139.678144711   116.9826   2  11   0.0177   0.0306   0.0475  -0.0132  -0.0088   0.0110   0.00    1.1
2015/04/29 09:07:15.000   35.661359115  139.678144703   116.9842   2  11   0.0178   0.0306   0.0473  -0.0131  -0.0088   0.0110   0.00    1.1
2015/04/29 09:07:16.000   35.661359139  139.678144691   116.9907   2  11   0.0177   0.0305   0.0472  -0.0131  -0.0088   0.0110   0.00    1.1
2015/04/29 09:07:17.000   35.661359123  139.678144702   116.9866   2  11   0.0177   0.0305   0.0471  -0.0131  -0.0088   0.0110   0.00    1.1
2015/04/29 09:07:18.000   35.661359123  139.678144675   116.9890   2  11   0.0176   0.0304   0.0469  -0.0131  -0.0088   0.0109   0.00    1.1
2015/04/29 09:07:19.000   35.661359115  139.678144675   116.9841   2  11   0.0176   0.0304   0.0468  -0.0131  -0.0088   0.0109   0.00    1.1
2015/04/29 09:07:20.000   35.661359132  139.678144637   116.9825   2  11   0.0175   0.0303   0.0466  -0.0131  -0.0088   0.0109   0.00    1.1
2015/04/29 09:07:21.000   35.661359127  139.678144671   116.9865   2  11   0.0175   0.0302   0.0465  -0.0131  -0.0088   0.0108   0.00    1.1
2015/04/29 09:07:22.000   35.661359131  139.678144642   116.9822   2  11   0.0174   0.0302   0.0464  -0.0130  -0.0088   0.0109   0.00    1.1
2015/04/29 09:07:23.000   35.661359125  139.678144659   116.9755   2  11   0.0174   0.0302   0.0462  -0.0130  -0.0088   0.0108   0.00    1.1
2015/04/29 09:07:24.000   35.661359126  139.678144625   116.9767   2  11   0.0173   0.0301   0.0461  -0.0130  -0.0087   0.0108   0.00    1.1
2015/04/29 09:07:25.000   35.661359145  139.678144628   116.9776   2  11   0.0173   0.0300   0.0460  -0.0130  -0.0087   0.0108   0.00    1.1
2015/04/29 09:07:26.000   35.661359145  139.678144596   116.9761   2  11   0.0172   0.0300   0.0458  -0.0130  -0.0087   0.0107   0.00    1.1
2015/04/29 09:07:27.000   35.661359127  139.678144626   116.9790   2  11   0.0172   0.0299   0.0457  -0.0129  -0.0087   0.0107   0.00    1.1
2015/04/29 09:07:28.000   35.661359152  139.678144614   116.9725   2  11   0.0171   0.0300   0.0456  -0.0130  -0.0088   0.0106   0.00    1.1
2015/04/29 09:07:29.000   35.661359119  139.678144629   116.9782   2  11   0.0170   0.0299   0.0454  -0.0129  -0.0087   0.0106   0.00    1.1
2015/04/29 09:07:30.000   35.661359116  139.678144594   116.9742   2  11   0.0170   0.0298   0.0453  -0.0129  -0.0087   0.0106   0.00    1.1
2015/04/29 09:07:31.000   35.661359119  139.678144555   116.9735   2  11   0.0169   0.0299   0.0452  -0.0129  -0.0088   0.0106   0.00    1.1
2015/04/29 09:07:32.000   35.661359126  139.678144552   116.9764   2  11   0.0170   0.0297   0.0451  -0.0129  -0.0087   0.0106   0.00    1.1
2015/04/29 09:07:33.000   35.661359133  139.678144549   116.9656   2  11   0.0169   0.0297   0.0449  -0.0129  -0.0087   0.0105   0.00    1.1
2015/04/29 09:07:34.000   35.661359118  139.678144543   116.9720   2  11   0.0168   0.0297   0.0448  -0.0129  -0.0087   0.0105   0.00    1.1
2015/04/29 09:07:35.000   35.661359140  139.678144503   116.9697   2  11   0.0168   0.0296   0.0447  -0.0129  -0.0087   0.0104   0.00    1.1
2015/04/29 09:07:36.000   35.661359121  139.678144533   116.9684   2  11   0.0168   0.0296   0.0445  -0.0129  -0.0087   0.0104   0.00    1.1
2015/04/29 09:07:37.000   35.661359112  139.678144521   116.9711   2  11   0.0167   0.0295   0.0444  -0.0129  -0.0087   0.0104   0.00    1.1
2015/04/29 09:07:38.000   35.661359138  139.678144488   116.9691   2  11   0.0167   0.0295   0.0443  -0.0128  -0.0087   0.0104   0.00    1.1
2015/04/29 09:07:39.000   35.661359129  139.678144502   116.9639   2  11   0.0166   0.0294   0.0442  -0.0128  -0.0087   0.0104   0.00    1.1
2015/04/29 09:07:40.000   35.661359151  139.678144477   116.9721   2  11   0.0166   0.0294   0.0441  -0.0128  -0.0087   0.0104   0.00    1.1
2015/04/29 09:07:41.000   35.661359143  139.678144469   116.9673   2  11   0.0166   0.0294   0.0439  -0.0128  -0.0087   0.0104   0.00    1.1
2015/04/29 09:07:42.000   35.661359139  139.678144448   116.9677   2  11   0.0166   0.0292   0.0438  -0.0127  -0.0086   0.0103   0.00    1.1
2015/04/29 09:07:43.000   35.661359121  139.678144449   116.9682   2  11   0.0165   0.0292   0.0437  -0.0128  -0.0087   0.0103   0.00    1.1
2015/04/29 09:07:44.000   35.661359138  139.678144443   116.9663   2  11   0.0164   0.0292   0.0436  -0.0128  -0.0086   0.0102   0.00    1.1
2015/04/29 09:07:45.000   35.661359137  139.678144417   116.9685   2  11   0.0165   0.0292   0.0435  -0.0128  -0.0087   0.0102   0.00    1.1
2015/04/29 09:07:46.000   35.661359156  139.678144371   116.9689   2  11   0.0163   0.0291   0.0434  -0.0127  -0.0086   0.0102   0.00    1.1
2015/04/29 09:07:47.000   35.661359149  139.678144397   116.9710   2  11   0.0163   0.0291   0.0432  -0.0128  -0.0086   0.0102   0.00    1.1
2015/04/29 09:07:48.000   35.661359166  139.678144384   116.9662   2  11   0.0163   0.0290   0.0431  -0.0127  -0.0086   0.0102   0.00    1.1
2015/04/29 09:07:49.000   35.661359161  139.678144359   116.9720   2  11   0.0162   0.0290   0.0430  -0.0127  -0.0086   0.0101   0.00    1.1
2015/04/29 09:07:50.000   35.661359167  139.678144352   116.9763   2  11   0.0161   0.0289   0.0429  -0.0127  -0.0086   0.0101   0.00    1.1
2015/04/29 09:07:51.000   35.661359178  139.678144347   116.9691   2  11   0.0162   0.0289   0.0428  -0.0127  -0.0086   0.0101   0.00    1.1
2015/04/29 09:07:52.000   35.661359162  139.678144331   116.9709   2  11   0.0161   0.0288   0.0427  -0.0127  -0.0086   0.0101   0.00    1.1
2015/04/29 09:07:53.000   35.661359177  139.678144308   116.9718   2  11   0.0161   0.0288   0.0425  -0.0127  -0.0086   0.0101   0.00    1.1
2015/04/29 09:07:54.000   35.661359164  139.678144319   116.9712   2  11   0.0161   0.0288   0.0424  -0.0126  -0.0086   0.0100   0.00    1.1
2015/04/29 09:07:55.000   35.661359177  139.678144291   116.9727   2  11   0.0160   0.0287   0.0423  -0.0126  -0.0086   0.0100   0.00    1.1
2015/04/29 09:07:56.000   35.661359212  139.678144257   116.9697   2  11   0.0160   0.0287   0.0422  -0.0126  -0.0085   0.0099   0.00    1.1
2015/04/29 09:07:57.000   35.661359208  139.678144253   116.9735   2  11   0.0159   0.0287   0.0421  -0.0126  -0.0086   0.0099   0.00    1.1
2015/04/29 09:07:58.000   35.661359209  139.678144243   116.9675   2  11   0.0159   0.0286   0.0420  -0.0126  -0.0086   0.0099   0.00    1.0
2015/04/29 09:07:59.000   35.661359176  139.678144230   116.9727   2  11   0.0158   0.0286   0.0419  -0.0126  -0.0086   0.0099   0.00    1.0
2015/04/29 09:08:00.000   35.661359179  139.678144214   116.9841   2  11   0.0158   0.0285   0.0418  -0.0125  -0.0085   0.0098   0.00    1.0
2015/04/29 09:08:01.000   35.661359213  139.678144206   116.9699   2  11   0.0157   0.0285   0.0417  -0.0125  -0.0086   0.0098   0.00    1.0
2015/04/29 09:08:02.000   35.661359202  139.678144206   116.9743   2  11   0.0157   0.0284   0.0416  -0.0126  -0.0085   0.0098   0.00    1.0
2015/04/29 09:08:03.000   35.661359214  139.678144195   116.9688   2  11   0.0157   0.0284   0.0415  -0.0125  -0.0086   0.0098   0.00    1.0
2015/04/29 09:08:04.000   35.661359215  139.678144187   116.9758   2  11   0.0156   0.0283   0.0414  -0.0125  -0.0085   0.0097   0.00    1.0
2015/04/29 09:08:05.000   35.661359211  139.678144157   116.9751   2  11   0.0156   0.0283   0.0412  -0.0125  -0.0085   0.0097   0.00    1.0
2015/04/29 09:08:06.000   35.661359219  139.678144148   116.9756   2  11   0.0156   0.0283   0.0411  -0.0125  -0.0085   0.0097   0.00    1.0
2015/04/29 09:08:07.000   35.661359210  139.678144163   116.9748   2  11   0.0155   0.0282   0.0411  -0.0124  -0.0085   0.0097   0.00    1.0
2015/04/29 09:08:08.000   35.661359207  139.678144156   116.9778   2  11   0.0155   0.0282   0.0409  -0.0124  -0.0085   0.0096   0.00    1.0
2015/04/29 09:08:09.000   35.661359191  139.678144103   116.9847   2  11   0.0155   0.0281   0.0408  -0.0125  -0.0084   0.0096   0.00    1.0
2015/04/29 09:08:10.000   35.661359198  139.678144130   116.9792   2  11   0.0154   0.0281   0.0407  -0.0125  -0.0085   0.0096   0.00    1.0
2015/04/29 09:08:11.000   35.661359200  139.678144118   116.9787   2  11   0.0155   0.0281   0.0406  -0.0124  -0.0085   0.0096   0.00    1.0
2015/04/29 09:08:12.000   35.661359215  139.678144087   116.9824   2  11   0.0154   0.0280   0.0405  -0.0124  -0.0084   0.0095   0.00    1.0
2015/04/29 09:08:13.000   35.661359204  139.678144085   116.9811   2  11   0.0153   0.0280   0.0404  -0.0125  -0.0085   0.0095   0.00    1.0
2015/04/29 09:08:14.000   35.661359229  139.678144102   116.9797   2  11   0.0152   0.0280   0.0403  -0.0124  -0.0085   0.0095   0.00    1.0
2015/04/29 09:08:15.000   35.661359199  139.678144083   116.9856   2  11   0.0152   0.0279   0.0402  -0.0123  -0.0084   0.0094   0.00    1.0
2015/04/29 09:08:16.000   35.661359206  139.678144072   116.9794   2  11   0.0152   0.0279   0.0401  -0.0124  -0.0085   0.0094   0.00    1.0
2015/04/29 09:08:17.000   35.661359219  139.678144057   116.9839   2  11   0.0152   0.0278   0.0400  -0.0124  -0.0085   0.0094   0.00    1.0
2015/04/29 09:08:18.000   35.661359199  139.678144084   116.9822   2  11   0.0152   0.0278   0.0399  -0.0123  -0.0085   0.0094   0.00    1.0
2015/04/29 09:08:19.000   35.661359202  139.678144066   116.9849   2  11   0.0152   0.0278   0.0398  -0.0123  -0.0085   0.0095   0.00    1.0
2015/04/29 09:08:20.000   35.661359186  139.678144034   116.9822   2  11   0.0151   0.0277   0.0397  -0.0123  -0.0084   0.0093   0.00    1.0
2015/04/29 09:08:21.000   35.661359198  139.678144063   116.9880   2  11   0.0151   0.0277   0.0396  -0.0123  -0.0084   0.0093   0.00    1.0
2015/04/29 09:08:22.000   35.661359198  139.678144025   116.9858   2  11   0.0151   0.0276   0.0396  -0.0123  -0.0085   0.0093   0.00    1.0
2015/04/29 09:08:23.000   35.661359200  139.678144011   116.9806   2  11   0.0151   0.0276   0.0395  -0.0123  -0.0084   0.0092   0.00    1.0
2015/04/29 09:08:24.000   35.661359206  139.678143998   116.9781   2  11   0.0150   0.0276   0.0394  -0.0123  -0.0084   0.0092   0.00    1.0
2015/04/29 09:08:25.000   35.661359187  139.678144002   116.9849   2  11   0.0149   0.0276   0.0393  -0.0122  -0.0084   0.0092   0.00    1.0
2015/04/29 09:08:26.000   35.661359203  139.678143993   116.9843   2  11   0.0148   0.0275   0.0392  -0.0122  -0.0084   0.0091   0.00    1.0
2015/04/29 09:08:27.000   35.661359181  139.678143982   116.9823   2  11   0.0149   0.0275   0.0391  -0.0122  -0.0084   0.0092   0.00    1.0
2015/04/29 09:08:28.000   35.661359197  139.678143975   116.9855   2  11   0.0149   0.0274   0.0390  -0.0122  -0.0084   0.0091   0.00    1.0
2015/04/29 09:08:29.000   35.661359176  139.678143974   116.9852   2  11   0.0148   0.0274   0.0389  -0.0122  -0.0084   0.0091   0.00    1.0
2015/04/29 09:08:30.000   35.661359177  139.678143964   116.9806   2  11   0.0148   0.0274   0.0388  -0.0122  -0.0084   0.0090   0.00    1.0
2015/04/29 09:08:31.000   35.661359168  139.678143953   116.9833   2  11   0.0147   0.0273   0.0387  -0.0121  -0.0084   0.0090   0.00    1.0
2015/04/29 09:08:32.000   35.661359185  139.678143943   116.9822   2  11   0.0148   0.0273   0.0386  -0.0122  -0.0084   0.0091   0.00    1.0
2015/04/29 09:08:33.000   35.661359192  139.678143940   116.9815   2  11   0.0147   0.0272   0.0385  -0.0121  -0.0084   0.0090   0.00    1.0
2015/04/29 09:08:34.000   35.661359184  139.678143928   116.9772   2  11   0.0147   0.0272   0.0384  -0.0121  -0.0084   0.0089   0.00    1.0
2015/04/29 09:08:35.000   35.661359172  139.678143931   116.9822   2  11   0.0147   0.0272   0.0383  -0.0121  -0.0084   0.0089   0.00    1.0
2015/04/29 09:08:36.000   35.661359187  139.678143870   116.9797   2  11   0.0146   0.0271   0.0383  -0.0122  -0.0083   0.0089   0.00    1.0
2015/04/29 09:08:37.000   35.661359193  139.678143900   116.9812   2  11   0.0145   0.0271   0.0382  -0.0121  -0.0084   0.0088   0.00    1.0
2015/04/29 09:08:38.000   35.661359173  139.678143885   116.9821   2  11   0.0146   0.0270   0.0381  -0.0121  -0.0083   0.0088   0.00    1.0
2015/04/29 09:08:39.000   35.661359186  139.678143880   116.9794   2  11   0.0145   0.0270   0.0380  -0.0121  -0.0084   0.0088   0.00    1.1
2015/04/29 09:08:40.000   35.661359168  139.678143859   116.9809   2  11   0.0145   0.0270   0.0379  -0.0121  -0.0083   0.0088   0.00    1.1
2015/04/29 09:08:41.000   35.661359179  139.678143865   116.9782   2  11   0.0144   0.0269   0.0378  -0.0121  -0.0083   0.0087   0.00    1.1
2015/04/29 09:08:42.000   35.661359173  139.678143851   116.9818   2  11   0.0145   0.0269   0.0377  -0.0121  -0.0083   0.0087   0.00    1.1
2015/04/29 09:08:43.000   35.661359199  139.678143844   116.9782   2  11   0.0144   0.0269   0.0377  -0.0120  -0.0083   0.0087   0.00    1.1
2015/04/29 09:08:44.000   35.661359175  139.678143845   116.9768   2  11   0.0143   0.0268   0.0376  -0.0120  -0.0084   0.0087   0.00    1.1
2015/04/29 09:08:45.000   35.661359169  139.678143819   116.9817   2  11   0.0143   0.0268   0.0375  -0.0120  -0.0083   0.0087   0.00    1.1
